{
"type": "FeatureCollection",
"features": [
{ "type": "Feature", "properties": { "latitud": 19.480774, "titular": "Director: Dr. Enrique Garduño Salvador Dirección: Av. San Juan de Aragón No 28, Col. Granjas Modernas. Delegación Gustavo A. Madero C.P. 07460. Teléfono: 55 77 88 67", "coordenadas": "-99.103371,19.480774,0.000000", "nombre": "Hospital General La Villa", "longitud": -99.103371 }, "geometry": { "type": "Point", "coordinates": [ -99.103371, 19.480774 ] } },
{ "type": "Feature", "properties": { "latitud": 19.200199, "titular": "Dirección: Dr.Benjamín Ortega Romero Dirección: Carretera Milpa Alta Chalco km. 2.5, Col. Villa Milpa Alta, Delegación Milpa Alta CP 12000 Teléfono: 2211-5839", "coordenadas": "-99.011253,19.200199,0.000000", "nombre": "Hospital General Milpa Alta", "longitud": -99.011253 }, "geometry": { "type": "Point", "coordinates": [ -99.011253, 19.200199 ] } },
{ "type": "Feature", "properties": { "latitud": 19.514547, "titular": "Director: Dr. Carlos Vazquez Noriega Dirección: Plan de San Luis S\/n, Col. Ticom?n Delegación Gustavo A. Madero. C.P. 07330. Teléfono: 57 54 39 79", "coordenadas": "-99.138245,19.514547,0.000000", "nombre": "Hospital General Ticomán", "longitud": -99.138245 }, "geometry": { "type": "Point", "coordinates": [ -99.138245, 19.514547 ] } },
{ "type": "Feature", "properties": { "latitud": 19.450987, "titular": "Director: Dr. José Alfredo Jiménez Douglas Dirección: Plan de San Luis y Díaz Mirón, Col. Casco de Santo Tomás Delegación Miguel Hidalgo C.P. 11340. Teléfono: 53 41 17 93", "coordenadas": "-99.169189,19.450987,0.000000", "nombre": "Hospital General Dr. Rub?n Le?ero", "longitud": -99.169189 }, "geometry": { "type": "Point", "coordinates": [ -99.169189, 19.450987 ] } },
{ "type": "Feature", "properties": { "latitud": 19.343451, "titular": "Director: Dr. Benjamín Méndez Pinto Dirección: Avenida Ermita Iztapalapa no. 3018, Col. Citlali; Delegación Iztapalapa, CP 09660 Teléfono: 54293212", "coordenadas": "-99.027863,19.343451,0.000000", "nombre": "Hospital General Iztapalapa C.E.E.", "longitud": -99.027863 }, "geometry": { "type": "Point", "coordinates": [ -99.027863, 19.343451 ] } },
{ "type": "Feature", "properties": { "latitud": 19.356548, "titular": "Director: Dr. Ramón Carballo Herrada Dirección: Calzada Ermita Iztapalapa No. 780, Col. Granjas San Antonio, Delegación Iztapalapa C.P. 09070. Teléfono: 56 85 94 16", "coordenadas": "-99.107689,19.356548,0.000000", "nombre": "Hospital Pediátrico Iztapalapa", "longitud": -99.107689 }, "geometry": { "type": "Point", "coordinates": [ -99.107689, 19.356548 ] } },
{ "type": "Feature", "properties": { "latitud": 19.432852, "titular": "Director: Dr. Enrique Grania Pozada Dirección: Oriente 158 No. 189, Col. Moctezuma 2da. Secci?n, Delegación Venustiano Carranza C.P. 15530. Teléfono: 55 71 40 57", "coordenadas": "-99.098358,19.432852,0.000000", "nombre": "Hospital Pediátrico Moctezuma", "longitud": -99.098358 }, "geometry": { "type": "Point", "coordinates": [ -99.098358, 19.432852 ] } },
{ "type": "Feature", "properties": { "latitud": 19.345737, "titular": "Director: Dr. Miguel Camarillo Valencia Dirección: Moctezuma No. 18, Col. Del Carmen Coyoacán, Delegación Coyoacán C.P. 0400. Teléfono: 55 54 28 60", "coordenadas": "-99.167725,19.345737,0.000000", "nombre": "Hospital Pediátrico Coyoacán", "longitud": -99.167725 }, "geometry": { "type": "Point", "coordinates": [ -99.167725, 19.345737 ] } },
{ "type": "Feature", "properties": { "latitud": 19.457306, "titular": "Director: Dr. Raúl Contreras Artine Dirección: Av. 506 entre calle 517 y 521, Col. San Juan de Arag?n 1a. Secci?n Del. Gustavo A. Madero C.P. 07969. Teléfono: 55 51 00 03", "coordenadas": "-99.092812,19.457306,0.000000", "nombre": "Hospital Pediátrico San Juan de Aragón", "longitud": -99.092812 }, "geometry": { "type": "Point", "coordinates": [ -99.092812, 19.457306 ] } },
{ "type": "Feature", "properties": { "latitud": 19.487551, "titular": "Director: Dra. María del Rocío Lima Carcaño Dirección: Avenida Cantera, Esq. Hidalgo S\/n, Col. Estanzuela Delegación Gustavo A. Madero C.P. 07050. Teléfono: 57 81 20 69", "coordenadas": "-99.113876,19.487551,0.000000", "nombre": "Hospital Pediátrico Villa", "longitud": -99.113876 }, "geometry": { "type": "Point", "coordinates": [ -99.113876, 19.487551 ] } },
{ "type": "Feature", "properties": { "latitud": 19.402376, "titular": "Director: Dr. Hugo Caballero Novara Dirección: Avenida Coyuya y Terrapl?n de R?o Fr?o S\/n, Col. La Cruz, Delegación Iztacalco C.P. 08310. Teléfono: 56 57 93 75", "coordenadas": "-99.117943,19.402376,0.000000", "nombre": "Hospital Pediátrico Iztacalco", "longitud": -99.117943 }, "geometry": { "type": "Point", "coordinates": [ -99.117943, 19.402376 ] } },
{ "type": "Feature", "properties": { "latitud": 19.460251, "titular": "Director: Dr. Emilio Escobar Picazo Dirección: Tolnahuac No. 14, Col. San Sim?n Delegación Cuauht?moc C.P. 06920. Teléfono: 55 83 41 80", "coordenadas": "-99.141022,19.460251,0.000000", "nombre": "Hospital Pediátrico Peralvillo", "longitud": -99.141022 }, "geometry": { "type": "Point", "coordinates": [ -99.141022, 19.460251 ] } },
{ "type": "Feature", "properties": { "latitud": 19.452307, "titular": "Director: Dr. Martín Viveros Alcaraz Dirección: Estaño No. 307, Esq. Congreso de la Unión, Col. Felipe Ángeles Delegación Venustiano Carranza C.P 15310. Teléfono: 57 95 67 64", "coordenadas": "-99.113228,19.452307,0.000000", "nombre": "Hospital Materno Infantil Iniguar?n", "longitud": -99.113228 }, "geometry": { "type": "Point", "coordinates": [ -99.113228, 19.452307 ] } },
{ "type": "Feature", "properties": { "latitud": 19.254906, "titular": "Director: Dr. Victor Hugo Pulido Olivares Dirección: Prolongación 16 de Septiembre y Calzada Nativitas, Barrio Xaltoc?n, Delegación Xochimilco C.P. 16090. Teléfono: 56 76 49 93", "coordenadas": "-99.104958,19.254906,0.000000", "nombre": "Hospital Materno Infantil Xochimilco", "longitud": -99.104958 }, "geometry": { "type": "Point", "coordinates": [ -99.104958, 19.254906 ] } },
{ "type": "Feature", "properties": { "latitud": 19.36005, "titular": "Director: Dr.Jorge Arturo Avi?a Valencia Dirección: Av. México Coyoacán s\/n, Esq. Bruno Traven, Col. General Anaya, Delegación Benito Ju?rez C.P. 30340. Teléfono: 56 88 91 31", "coordenadas": "-99.163162,19.360050,0.000000", "nombre": "Hospital General Xoco", "longitud": -99.163162 }, "geometry": { "type": "Point", "coordinates": [ -99.163162, 19.36005 ] } },
{ "type": "Feature", "properties": { "latitud": 19.402475, "titular": "Director: Dr. Carlos Javier Arnaiz Toledo Dirección: Calle Carlos Lazo No.25, Esq. Gaviota, Col. Tacubaya Delegación Miguel Hidalgo C.P. 11870. Teléfono: 55 15 79 20", "coordenadas": "-99.190842,19.402475,0.000000", "nombre": "Hospital Pediátrico Tacubaya", "longitud": -99.190842 }, "geometry": { "type": "Point", "coordinates": [ -99.190842, 19.402475 ] } },
{ "type": "Feature", "properties": { "latitud": 19.199308, "titular": "Dirección: Calzada Santa Cruz No. 1, Col.San Miguel Topilejo, Delegación Tlalpan C.P. 14500. Teléfono: 58 48 08 70", "coordenadas": "-99.140236,19.199308,0.000000", "nombre": "Hospital Materno Infantil Topilejo", "longitud": -99.140236 }, "geometry": { "type": "Point", "coordinates": [ -99.140236, 19.199308 ] } },
{ "type": "Feature", "properties": { "latitud": 19.424906, "titular": "Director: Dr. Miguel Angel Martínez Guzmán Dirección: Cecilio R?belo y sur No.103, Col. Aeron?utica Militar, Delegación Venustiano Carranza C.P. 15900. Teléfono: 55 52 16 02", "coordenadas": "-99.115303,19.424906,0.000000", "nombre": "Hospital General Balbuena", "longitud": -99.115303 }, "geometry": { "type": "Point", "coordinates": [ -99.115303, 19.424906 ] } },
{ "type": "Feature", "properties": { "latitud": 19.539803, "titular": "Director: Dr. Roberto P?rez AguilarDirección: Emiliano Zapata No 17, Col. Cuautepec Barrio Bajo Delegación Gustavo A. Madero C.P. 07200. Teléfono: 53 06 21 90", "coordenadas": "-99.140785,19.539803,0.000000", "nombre": "Hospital Materno Infantil Cuautepec", "longitud": -99.140785 }, "geometry": { "type": "Point", "coordinates": [ -99.140785, 19.539803 ] } },
{ "type": "Feature", "properties": { "latitud": 19.450733, "titular": "Director: Dr. Arturo Rafael Capistrán Guadalajara Dirección: Calzada Legar?a 371, Col. México Nuevo, Delegación Miguel Hidalgo C. P. 11260. Teléfono: 50 82 76 42", "coordenadas": "-99.202934,19.450733,0.000000", "nombre": "Hospital Pediátrico Legaria", "longitud": -99.202934 }, "geometry": { "type": "Point", "coordinates": [ -99.202934, 19.450733 ] } },
{ "type": "Feature", "properties": { "latitud": 19.361961, "titular": "Director: Dra. Arcelia Martínez González Dirección: Av. Centenario, esquina Prolongación 5 de mayo, Col. Exhacienda de Tarango, Delegación ?lvaro Obreg?n Teléfono: 12 85 29 54", "coordenadas": "-99.224678,19.361961,0.000000", "nombre": "Hospital General Dr. Enrique Cabrera", "longitud": -99.224678 }, "geometry": { "type": "Point", "coordinates": [ -99.224678, 19.361961 ] } },
{ "type": "Feature", "properties": { "latitud": 19.306768, "titular": "Director: Dr. Osvaldo González La Riviere Dirección: Av. Tlahuac No. 4866, Esq. Zacatlan, Col. San Lorenzo Tezonco, Delegación Iztapalapa C.P. 09790. Teléfono: 58 50 00 02", "coordenadas": "-99.065460,19.306768,0.000000", "nombre": "Hospital de Especialidades Dr. Belisario Dom?nguez", "longitud": -99.06546 }, "geometry": { "type": "Point", "coordinates": [ -99.06546, 19.306768 ] } },
{ "type": "Feature", "properties": { "latitud": 19.437643, "titular": "Director: Dr. Argemiro José Genes Naar Dirección: Carmen No. 41, Col. Centro Delegación Cuauht?moc C.P 06020. Teléfono: 57 02 03 72", "coordenadas": "-99.129356,19.437643,0.000000", "nombre": "Hospital General Dr. Gregorio Salas Flores", "longitud": -99.129356 }, "geometry": { "type": "Point", "coordinates": [ -99.129356, 19.437643 ] } },
{ "type": "Feature", "properties": { "latitud": 19.484491, "titular": "Director: Dra. Guadalupe Alejandra Santillán Mu?ozDirección: Los Reyes, Azcapotzalco, Ciudad de México, DFTeléfono: 55 61 28 54", "coordenadas": "-99.185608,19.484491,0.000000", "nombre": "Hospital Pediátrico Azcapotzalco", "longitud": -99.185608 }, "geometry": { "type": "Point", "coordinates": [ -99.185608, 19.484491 ] } },
{ "type": "Feature", "properties": { "latitud": 19.347433, "titular": "Director: Dra. Mar?a del Rosario Arrazola Flores Dirección: Av. 16 de Septiembre s\/n, Col. Contadero, Delegación Cuajimalpa de Morelos C.P.06500. Teléfono: 58 12 22 11", "coordenadas": "-99.301117,19.347433,0.000000", "nombre": "Hospital Materno Infantil Cuajimalpa", "longitud": -99.301117 }, "geometry": { "type": "Point", "coordinates": [ -99.301117, 19.347433 ] } },
{ "type": "Feature", "properties": { "latitud": 19.498251, "titular": "Director: Dra. Patricia Flores Galicia Dirección: Gustavo J. S\/n, Esq. V?ctor Hern?ndez Covarrubias, Col. Unidad Francisco Villa Delegación Azcapotzalco C.P. 02400. Teléfono: 53 94 05 65", "coordenadas": "-99.203300,19.498251,0.000000", "nombre": "Hospital Materno Infantil Dr. Nicolás M. Cedillo", "longitud": -99.2033 }, "geometry": { "type": "Point", "coordinates": [ -99.2033, 19.498251 ] } },
{ "type": "Feature", "properties": { "latitud": 19.265505, "titular": "Director: Dr. Raúl Ernesto Guevara Meléndez Machuca Dirección: Av. Tláhuac Chalco No. 231, Col. La Habana, Delegación Tláhuac C.P. 13050. Teléfono: 58 42 36 01 &nbsp;", "coordenadas": "-98.997925,19.265505,0.000000", "nombre": "Hospital Materno Infantil Tláhuac", "longitud": -98.997925 }, "geometry": { "type": "Point", "coordinates": [ -98.997925, 19.265505 ] } }
]
}
